City_ID,City,Country,Max Temp,Current Description,Latitude,Longitude,Hotel Name
0,Khatanga,RU,28.85,overcast clouds,71.9667,102.5,"Gostinitsa ""Zapolyar'ye"""
1,Gannavaram,IN,76.98,thunderstorm with light rain,16.5333,80.8,K guest house.
2,Fes,MA,66.45,clear sky,34.0372,-4.9998,Hotel Mounia Fès
3,Yangi Marg`ilon,UZ,72.32,clear sky,40.4272,71.7189,Ikathouse
4,Vaini,TO,77.16,broken clouds,-21.2,-175.2,Keleti Beach Resort
5,Rikitea,PF,73.78,clear sky,-23.1203,-134.9692,People ThankYou
6,Port Alfred,ZA,64.33,scattered clouds,-33.5906,26.891,The Halyards Hotel
7,Baijiantan,CN,54.0,clear sky,45.6333,85.1833,
8,Thompson,CA,59.16,scattered clouds,55.7435,-97.8558,Burntwood Hotel
9,Bluff,NZ,50.81,clear sky,-46.6,168.3333,Bluff Homestead - Guesthouse & Campervan Park
10,Anadyr,RU,36.1,few clouds,64.75,177.4833,"Гостиница ""Анадырь"""
11,Bethel,US,64.71,clear sky,41.3712,-73.414,Courtyard by Marriott Danbury
12,Atar,MR,93.81,clear sky,20.5169,-13.0499,Oumou Elghoura
13,Longyearbyen,SJ,39.04,light intensity drizzle,78.2186,15.6401,"Radisson Blu Polar Hotel, Spitsbergen"
14,East London,ZA,66.0,broken clouds,-33.0153,27.9116,Tu Casa
15,Sitka,US,55.29,overcast clouds,57.0531,-135.33,Westmark Sitka
16,Victor Harbor,AU,71.8,overcast clouds,-35.5667,138.6167,McCracken Country Club
17,Qaanaaq,GL,19.06,broken clouds,77.484,-69.3632,Qaanaaq Hotel
18,Dwārka,IN,81.09,overcast clouds,22.2394,68.9678,Hotel Narayan Avezika Comfort
19,Tuktoyaktuk,CA,33.8,light rain,69.4541,-133.0374,End of The Road Ltd.
20,Saskylakh,RU,34.95,overcast clouds,71.9167,114.0833,
21,Emirdağ,TR,55.78,clear sky,39.0197,31.15,Emirdağ Öğretmenevi
22,Souillac,MU,70.18,light rain,-20.5167,57.5167,Shanti Maurice Resort & Spa
23,Camaná,PE,61.95,broken clouds,-16.6228,-72.7111,Hostal Morales
24,Mouila,GA,74.1,overcast clouds,-1.8685,11.0559,Hôtel du Lac Bleu
25,Omsukchan,RU,31.46,overcast clouds,62.5333,155.8,
26,Makati,PH,82.58,broken clouds,14.5569,121.0235,Dusit Thani Manila
27,Marabba,SD,74.84,scattered clouds,12.35,32.1833,
28,Mahébourg,MU,70.09,light rain,-20.4081,57.7,Shandrani Beachcomber Resort & Spa
29,Cape Town,ZA,60.28,clear sky,-33.9258,18.4232,Southern Sun Waterfront Cape Town
30,Albany,US,56.59,clear sky,42.6001,-73.9662,
31,Korla,CN,60.96,clear sky,41.7597,86.1469,Gulisitan Hotel
32,Faanui,PF,79.97,clear sky,-16.4833,-151.75,Bora-Bora Pearl Beach Resort & Spa
33,Gravelbourg,CA,77.27,few clouds,49.8834,-106.5512,Historic Bishops Residence Bed & Breakfast
34,Butaritari,KI,83.97,overcast clouds,3.0707,172.7902,Isles Sunset Lodge
35,Esim,GH,74.73,light rain,4.8699,-2.2405,Axim Beach Resort And Spa
36,Carnarvon,AU,64.47,broken clouds,-24.8667,113.6333,Hospitality Carnarvon
37,São João da Barra,BR,73.0,overcast clouds,-21.6403,-41.0511,Pousada Porto De Canoas
38,Bubaque,GW,83.43,overcast clouds,11.2833,-15.8333,"Casa Dora, Bubaque"
39,Ballina,AU,64.78,overcast clouds,-28.8667,153.5667,Ramada Hotel & Suites by Wyndham Ballina Byron
40,Cayenne,GF,83.08,broken clouds,4.9333,-52.3333,Hôtel Le Dronmi
41,Bredasdorp,ZA,58.32,scattered clouds,-34.5322,20.0403,Bredasdorp Country Manor
42,Cidreira,BR,64.8,clear sky,-30.1811,-50.2056,Hotel Castelo
43,Pangnirtung,CA,32.14,few clouds,66.1451,-65.7125,Kilabuk Lodge
44,Punta Arenas,CL,41.11,clear sky,-53.15,-70.9167,Hotel Dreams Del Estrecho
45,Severo-Kuril'sk,RU,52.45,broken clouds,50.6789,156.125,Kak Doma
46,Hobart,AU,56.26,few clouds,-42.8794,147.3294,Mantra on Collins Hobart
47,Floresta,BR,75.87,clear sky,-8.6011,-38.5686,Hotel Floresta
48,Constitución,CL,49.96,few clouds,-35.3333,-72.4167,Hotel Boutique Las Azucenas
49,Koslan,RU,41.63,overcast clouds,63.4564,48.8989,
50,Mataura,NZ,50.49,clear sky,-46.1927,168.8643,Ellie's Villa
51,Barrow,US,21.22,clear sky,71.2906,-156.7887,King Eider Inn
52,Boa Vista,BR,82.38,few clouds,2.8197,-60.6733,Aipana Plaza Hotel
53,Hilo,US,88.29,moderate rain,19.7297,-155.09,Hilo Hawaiian Hotel
54,New Norfolk,AU,55.92,scattered clouds,-42.7826,147.0587,The Shingles Riverside Cottages
55,Mar del Plata,AR,54.09,overcast clouds,-38.0023,-57.5575,Gran Hotel Mar del Plata
57,Davidson,US,69.82,clear sky,36.1501,-86.7833,Best Western Plus Music Row
58,Labuhan,ID,80.82,few clouds,-6.8844,112.2051,PT PPI Lamongan Tambak C
59,Hermanus,ZA,58.89,broken clouds,-34.4187,19.2345,Misty Waves Boutique Hotel
60,Fortuna,US,69.93,clear sky,40.5982,-124.1573,Super 8 by Wyndham Fortuna
61,Chokurdakh,RU,27.14,light snow,70.6333,147.9167,
62,Ushuaia,AR,40.66,clear sky,-54.8,-68.3,Albatros Hotel
63,‘Ewa Beach,US,85.37,broken clouds,21.3156,-158.0072,Uncle Junior Robert
64,Dezful,IR,77.81,clear sky,32.3811,48.4058,سالن پیرایش امید
65,Poum,NC,72.82,clear sky,-20.2333,164.0167,Gîte kajeon
66,Vardø,NO,48.0,overcast clouds,70.3705,31.1107,Vardø Hotel AS
67,Acapulco de Juárez,MX,85.82,overcast clouds,16.8634,-99.8901,HS Hotsson Smart Acapulco
68,Leningradskiy,RU,29.14,overcast clouds,69.3833,178.4167,Gostinitsa
69,Busselton,AU,60.04,scattered clouds,-33.65,115.3333,Observatory Guest House
70,Jamestown,US,61.92,overcast clouds,42.097,-79.2353,Hampton Inn & Suites Jamestown
71,Fort Nelson,CA,47.79,light rain,58.8053,-122.7002,The Fort Nelson Hotel
72,Tasiilaq,GL,33.96,few clouds,65.6145,-37.6368,The Red House
73,Arraial do Cabo,BR,71.26,broken clouds,-22.9661,-42.0278,Pousada Porto Praia
74,Saint Paul Harbor,US,47.53,clear sky,57.79,-152.4072,Best Western Kodiak Inn And Convention Center
75,Elk City,US,83.08,clear sky,35.412,-99.4043,Hampton Inn & Suites Elk City
76,Ugoofaaru,MV,80.4,light rain,5.6667,73.0,Ungoofaaru Inn
77,Nakhon Thai,TH,76.91,overcast clouds,17.1006,100.8374,Phet resort
78,Salalah,OM,79.97,clear sky,17.0151,54.0924,HAMDAN PLAZA HOTEL SALALAH
79,Hong Kong,HK,86.38,scattered clouds,22.2855,114.1577,Mini Hotel Central
81,Lakes Entrance,AU,62.17,clear sky,-37.8811,147.981,The Esplanade Resort & Spa
82,Anzhero-Sudzhensk,RU,31.66,broken clouds,56.081,86.0285,"Hotel ""Anzherskaya"""
83,Sur,OM,82.53,clear sky,22.5667,59.5289,Sur Plaza Hotel
84,Tromsø,NO,57.85,broken clouds,69.6496,18.957,"Radisson Blu Hotel, Tromsø"
85,Bajil,YE,85.86,clear sky,15.0584,43.2851,فندق حضرموت
86,Cherskiy,RU,29.57,snow,68.75,161.3,Gostinitsa
87,Mil'kovo,RU,50.76,overcast clouds,54.7167,158.6167,"Hotel ""Geologist"""
88,Anloga,GH,77.22,light rain,5.7947,0.8973,Pin Drop Hotel
89,Vila Franca do Campo,PT,70.2,overcast clouds,37.7167,-25.4333,Pestana Bahia Praia
90,Airai,TL,76.01,overcast clouds,-8.9266,125.4092,Juvinal Martin
91,Puerto Ayora,EC,69.28,overcast clouds,-0.7393,-90.3518,Finch Bay Galapagos Hotel
92,Deputatsky,RU,28.63,light snow,69.3,139.9,Baza Otdykha
93,Tiksi,RU,33.62,light rain,71.6872,128.8694,Arktika
94,Benidorm,ES,72.9,few clouds,38.5382,-0.131,Medplaya Hotel Flamingo Oasis
95,Buchanan,LR,74.59,heavy intensity rain,5.8808,-10.0467,Kamaneahn Hotel Inc
96,Kumluca,TR,74.52,clear sky,36.3703,30.2869,TurkuazKöy
97,Lompoc,US,67.14,clear sky,34.6391,-120.4579,"Holiday Inn Express Lompoc, an IHG Hotel"
98,Broome,US,59.38,overcast clouds,42.2506,-75.833,Chenango Valley State Park
99,Cockburn Town,TC,83.28,few clouds,21.4612,-71.1419,Osprey Beach Hotel
100,Hiratachō,JP,77.02,scattered clouds,35.4333,132.8167,Hirata Maple Hotel
101,Upernavik,GL,23.77,clear sky,72.7868,-56.1549,Gina's Guesthouse - Upernavik
102,Chara,RU,37.63,moderate rain,56.9064,118.2631,
103,Portland,US,75.61,broken clouds,45.5234,-122.6762,Embassy Suites by Hilton Portland Downtown
104,Mthatha,ZA,57.76,scattered clouds,-31.5889,28.7844,LLZZ Boutique Lodge
105,Darasun,RU,37.94,few clouds,51.6667,114.0,
106,Orlik,RU,30.63,snow,52.5178,99.825,Gostevoy Dom Mini Gostinitsa
107,Denpasar,ID,80.26,few clouds,-8.65,115.2167,ASTON Denpasar Hotel & Convention Center
108,Ancud,CL,42.33,overcast clouds,-41.8697,-73.8203,Hotel Arena Gruesa
109,Conde,BR,74.66,broken clouds,-7.2597,-34.9075,Pousada Beija Flor
110,Kapaa,US,84.52,light rain,22.0752,-159.319,Sheraton Kauai Coconut Beach Resort
111,Rāzole,IN,77.29,heavy intensity rain,16.4833,81.8333,Sterling Palavelli Godavari
112,Manaure,CO,84.79,overcast clouds,11.7751,-72.4445,Hotel Palaaima
113,Dunedin,NZ,49.01,scattered clouds,-45.8742,170.5036,Scenic Hotel Southern Cross
114,Soria,ES,50.86,overcast clouds,41.6667,-2.6667,Casa Rural Sierra de Inodejo
115,Ostrovnoy,RU,43.39,overcast clouds,68.0531,39.5131,
116,Atuona,PF,78.12,clear sky,-9.8,-139.0333,Villa Enata
117,Marsh Harbour,BS,80.08,clear sky,26.5412,-77.0636,Abaco Beach Resort
118,Ryde,GB,62.94,overcast clouds,50.73,-1.1621,Dorset Hotel
119,Avarua,CK,78.85,scattered clouds,-21.2078,-159.775,Paradise Inn
120,Amahai,ID,82.67,broken clouds,-3.3333,128.9167,HOTEL ISABELA
121,Rodolfo Sánchez Taboada,MX,69.19,clear sky,31.7167,-116.5667,Casa De Thompson
122,Calabozo,VE,78.37,overcast clouds,8.9242,-67.4293,Hotel Giardini
123,Evensk,RU,43.74,clear sky,61.95,159.2333,
124,Port Pirie,AU,71.69,overcast clouds,-33.1833,138.0167,John Pirie Motor Inn
125,Hithadhoo,MV,82.2,light rain,-0.6,73.0833,Scoop Guest House
127,Kingman,US,84.29,broken clouds,35.1894,-114.053,Rodeway Inn Kingman Route 66
128,Port Blair,IN,77.04,mist,11.6667,92.75,"Welcomhotel By ITC Hotels, Bay Island, Port Blair"
129,Mandalgovi,MN,48.34,clear sky,45.7625,106.2708,В.Ганбат
130,Esperance,AU,58.84,broken clouds,-33.8667,121.9,Hospitality Esperance
131,Klaksvík,FO,50.92,broken clouds,62.2266,-6.589,Airbnb rooms
132,Wanaka,NZ,50.11,few clouds,-44.7,169.15,Wanaka Homestead Lodge and Cottages
133,St. George's,GD,80.28,few clouds,12.0564,-61.7485,Radisson Grenada Beach Resort
134,Meadow Lake,US,72.88,overcast clouds,34.8014,-106.5436,TumbleWeed RV Park
135,Coquimbo,CL,55.13,clear sky,-29.9533,-71.3436,Punto de encuentro
136,Torbay,CA,54.57,broken clouds,47.6666,-52.7314,Gallows Cove
137,Severo-Yeniseyskiy,RU,30.61,overcast clouds,60.3725,93.0408,Aktolik
138,Waipawa,NZ,47.44,light rain,-41.4122,175.5153,Tora Coastal Walk
139,Quatre Cocos,MU,69.91,light rain,-20.2078,57.7625,Sunrise Attitude Hotel
141,Yar-Sale,RU,31.93,clear sky,66.8333,70.8333,Yalemd
142,Bhuj,IN,79.95,overcast clouds,23.2667,69.6667,Regenta Resort Bhuj
143,Kifrī,IQ,75.65,clear sky,34.6959,44.9661,میزان کفری
144,Karasjok,NO,50.11,scattered clouds,69.4719,25.5112,Karasjok camping AS
145,Manggar,ID,84.15,broken clouds,-2.8833,108.2667,Guest Hotel
146,Andenes,NO,55.38,overcast clouds,69.3143,16.1194,Hotell Marena
147,Nantucket,US,66.96,clear sky,41.2835,-70.0995,Jared Coffin House
148,Gogrial,SS,71.22,overcast clouds,8.5332,28.1004,
149,Gizo Government Station,SB,84.06,overcast clouds,-8.103,156.8419,Imagination Island
150,Saint-Philippe,RE,69.35,light rain,-21.3585,55.7679,"Chambres d'hôte ""La Trinité"""
151,Kaitangata,NZ,54.93,clear sky,-46.2817,169.8464,Kaitangata Motor Camp
152,Juneau,US,55.85,overcast clouds,58.3019,-134.4197,"Baranof Downtown, Bw Signature Collection"
153,Carutapera,BR,78.39,broken clouds,-1.195,-46.02,Lidera
154,Ixtapa,MX,82.22,overcast clouds,20.7,-105.2,Hotel Plaza Providencia
155,Pevek,RU,31.51,light snow,69.7008,170.3133,Hotel ABC
156,Norman Wells,CA,35.64,broken clouds,65.282,-126.8329,Heritage Hotel
157,Flinders,AU,65.17,broken clouds,-34.5833,150.8552,Shellharbour Resort & Conference Centre
158,Trelew,AR,51.64,clear sky,-43.249,-65.3051,Hotel Touring Club
159,Te Anau,NZ,48.63,clear sky,-45.4167,167.7167,Kingsgate Hotel Te Anau
160,Fare,PF,79.56,clear sky,-16.7,-151.0167,Maitai Lapita Village Huahine
161,Toora-Khem,RU,28.47,snow,52.4675,96.11,
162,Hambantota,LK,77.34,few clouds,6.1241,81.1185,Bungalow 63
163,Kyshtovka,RU,35.37,overcast clouds,56.555,76.6271,Uyutnaya Mini-Hotel
164,Maralal,KE,59.5,scattered clouds,1.0968,36.698,Ngari Hill Ecolodge
165,Castro,BR,63.05,clear sky,-24.7911,-50.0119,CHACARA BAILLY
166,Río Cuarto,AR,58.77,clear sky,-33.1307,-64.3499,Grand Hotel Río Cuarto
167,Isangel,VU,77.11,overcast clouds,-19.55,169.2667,Tanna Lodge
168,São Gabriel da Cachoeira,BR,72.07,heavy intensity rain,-0.1303,-67.0892,Alarne - Área De Lazer Do Alto Rio Negro
169,Camacha,PT,66.96,clear sky,33.0833,-16.3333,Hotel Porto Santo & Spa
170,Bengkulu,ID,78.04,broken clouds,-3.8004,102.2655,Grage Hotel Bengkulu
171,Canatlán,MX,64.33,overcast clouds,24.5167,-104.7833,Mama Chuya
172,Erenhot,CN,57.9,clear sky,43.6475,111.9767,Erenhot Rurouni Youth Hostel
173,Saint George,US,90.19,clear sky,37.1041,-113.5841,Best Western Plus Abbey Inn
174,Plettenberg Bay,ZA,60.76,clear sky,-34.0527,23.3716,Thanda Vista B&B
175,Safford,US,72.1,clear sky,32.834,-109.7076,SpringHill Suites by Marriott Thatcher
176,Gimli,CA,60.82,overcast clouds,50.6336,-96.9907,Lakeview Gimli Resort
177,Umeå,SE,47.91,fog,63.8284,20.2597,Hotel Avenue | ProfilHotels
178,Kloulklubed,PW,84.7,broken clouds,7.0419,134.2556,Storyboard Beach Resort
179,Gympie,AU,62.31,overcast clouds,-26.1898,152.665,Mary River Motor Inn
180,Vila do Maio,CV,79.59,scattered clouds,15.1333,-23.2167,Hotel Marilu
181,Iqaluit,CA,35.33,overcast clouds,63.7506,-68.5145,Frobisher Inn
182,Saint-Leu,RE,68.83,clear sky,-21.15,55.2833,La Caz Oceane
183,Tessalit,ML,86.59,clear sky,20.1986,1.0114,
184,Wynyard,AU,51.1,overcast clouds,-41.0,145.7167,Burnie Airport Motel
185,Yamada,JP,64.56,overcast clouds,39.4667,141.95,Iroha-ya Inn
186,Savannah Bight,HN,82.45,overcast clouds,16.45,-85.85,Villa on Dunbar Rock
187,Barbacoas,CO,75.33,light rain,1.6715,-78.1398,edificio justin
188,Dakar,SN,80.73,clear sky,14.6937,-17.4441,Redface Studios Meublés
189,Lebu,CL,48.7,clear sky,-37.6167,-73.65,Hostal Las Lilas
190,Hue,VN,80.71,few clouds,16.4667,107.6,Saigon Morin Hotel
191,Alofi,NU,80.49,overcast clouds,-19.0595,-169.9187,Taloa Heights
192,Lebyazh'ye,RU,35.44,overcast clouds,55.2689,66.4947,
193,Bulawayo,ZW,60.37,clear sky,-20.15,28.5833,4 On Housman Backpackers
194,Talnakh,RU,33.87,overcast clouds,69.4865,88.3972,Talnakh Hotel
195,Bereket,TM,58.64,clear sky,39.2446,55.5154,Railway motel
196,Ust'-Ilimsk,RU,33.67,light rain,58.0006,102.6619,AleNat Center
197,Phan Thiet,VN,80.89,scattered clouds,10.9333,108.1,Hotel Saigon-PT
198,Haines Junction,CA,37.35,light rain,60.7522,-137.5108,Parkside Inn
199,Codrington,AU,61.14,few clouds,-38.2667,141.9667,Codrington Gardens Bed And Breakfast
200,La Asuncion,VE,83.93,scattered clouds,11.0333,-63.8628,Colinas de Matasiete
201,San Fernando del Valle de Catamarca,AR,70.59,clear sky,-28.4696,-65.7852,Amerian Catamarca Park Hotel
202,La Cruz,MX,81.57,clear sky,23.9167,-106.9,LIBERADOR DE CELULAS MADRE ADULTAS
203,Aykhal,RU,28.89,overcast clouds,66.0,111.5,
204,Narsaq,GL,31.28,clear sky,60.9167,-46.05,Narsaq Kayak Hostel
205,Meïganga,CM,63.73,overcast clouds,6.5167,14.3,DFR HOUSE
206,Kokstad,ZA,58.93,few clouds,-30.5472,29.4241,Majestic Bed and Breakfast
207,Ayagoz,KZ,34.97,overcast clouds,47.9714,80.4392,Gostinitsa Nur
208,Merauke,ID,83.1,broken clouds,-8.4667,140.3333,
209,Lamar,US,82.06,clear sky,33.6668,-95.5836,Kings Inn Paris TX
210,The Valley,AI,84.81,clear sky,18.217,-63.0578,CeBlue Villas & Beach Resort
211,Kikwit,CD,70.81,light rain,-5.041,18.8162,HOTEL PLACE YALABA
212,Satipo,PE,78.75,overcast clouds,-11.2522,-74.6386,Bungalows El Palmiche
213,Shenjiamen,CN,78.42,scattered clouds,29.9576,122.298,Jinjiang Inn Zhoushan Putuo Shenjiamen
214,Lampazos de Naranjo,MX,82.44,overcast clouds,27.0167,-100.5167,Bella Vista
215,Katsuura,JP,76.19,scattered clouds,35.1333,140.3,Katsuura Hotel Mikazuki
216,Dikson,RU,35.6,overcast clouds,73.5069,80.5464,
217,Geraldton,AU,66.61,scattered clouds,-28.7667,114.6,Broadwater Mariner Resort
218,Port Lincoln,AU,65.7,overcast clouds,-34.7333,135.8667,Port Lincoln Hotel
219,Hamilton,US,67.39,clear sky,39.1834,-84.5333,Six Acres Bed & Breakfast
220,Glendora,US,83.14,clear sky,34.1361,-117.8653,Garden Inn & Suites Glendora
221,Hudson Bay,CA,56.93,overcast clouds,52.85,-102.3842,Norwood Motel LTD
222,Lilongwe,MW,68.85,clear sky,-13.9669,33.7873,Spendwise furnished apartments.
223,Sipoo,FI,44.67,fog,60.3775,25.2691,CMG-Keltas
224,Mehamn,NO,48.45,overcast clouds,71.0357,27.8492,Mehamn Arctic Hotel AS
225,Sakaiminato,JP,76.98,scattered clouds,35.55,133.2333,味処・民宿 まつや
226,Athabasca,CA,67.82,overcast clouds,54.7169,-113.2854,Athabasca Lodge Motel
227,Brazzaville,CG,79.16,light rain,-4.2658,15.2832,Hotel Muesse
228,Port Keats,AU,87.3,clear sky,-14.25,129.55,TDC Village (Hundred Man Camp)
229,Mahesāna,IN,78.35,overcast clouds,23.6,72.4,ONGC Society
230,Rome,US,62.46,clear sky,43.2128,-75.4557,Wingate By Wyndham Rome
231,Champerico,GT,83.35,overcast clouds,14.3,-91.9167,"Hotel y restaurante ""El Diamante"""
232,Liepāja,LV,42.78,overcast clouds,56.5419,21.0367,Promenade Hotel
233,Aripuanã,BR,75.36,broken clouds,-9.1667,-60.6333,
234,Kapoeta,SS,72.66,scattered clouds,4.7717,33.5903,Eastgate Hotel
235,Tura,IN,78.37,clear sky,25.5198,90.2201,Hotel RIKMAN Continental
236,Funtua,NG,70.12,broken clouds,11.5233,7.3081,Sani Jikan Mallam Hotel
237,Kanungu,UG,58.41,few clouds,-0.9575,29.7897,
238,Bahía Blanca,AR,45.97,clear sky,-38.7196,-62.2724,Hotel Argos
239,Kefamenanu,ID,84.94,broken clouds,-9.4467,124.4781,Sokowindo Losmen
240,Lagoa,PT,66.7,scattered clouds,39.05,-27.9833,Casa Das Faias
241,Los Llanos de Aridane,ES,69.55,few clouds,28.6585,-17.9182,Valle Aridane
242,Pingxiang,CN,86.07,light rain,27.6167,113.85,Haiyuntian Hotel
243,Shimoda,JP,70.16,few clouds,34.6667,138.95,Shimoda Tokyu Hotel
244,Bargarh,IN,74.93,overcast clouds,21.3333,83.6167,HOTEL VD PALACE
245,Nelson Bay,AU,67.08,few clouds,-32.7167,152.15,Mantra Nelson Bay
246,Tieli,CN,61.2,moderate rain,46.95,128.05,Dynasty Hotel
247,Östersund,SE,52.25,few clouds,63.1792,14.6357,Best Western Hotel Gamla Teatern
248,Pisco,PE,60.85,clear sky,-13.7,-76.2167,Hotel San Isidro Oficial
249,Mount Isa,AU,89.37,clear sky,-20.7333,139.5,ibis Styles Mt Isa Verona
250,College,US,37.06,broken clouds,64.8569,-147.8028,Pike's Waterfront Lodge
251,Mezhdurechensk,RU,32.0,light snow,53.6942,88.0603,Apartments Mezhdurechensk
252,Mandan,US,75.04,clear sky,46.8267,-100.8896,Twin City Estates
253,Belmonte,BR,73.9,overcast clouds,-15.8631,-38.8828,Pousada Monte Carmelo O Pão
254,Abonnema,NG,75.34,overcast clouds,4.7084,6.7931,Corper's Lodge Obonoma
255,Kudahuvadhoo,MV,81.19,overcast clouds,2.6708,72.8944,Niyama Private Islands Maldives
256,Faya,SA,63.12,clear sky,18.3851,42.4509,املاك خالد الشعشوع
258,Yellowknife,CA,45.12,scattered clouds,62.456,-114.3525,The Explorer Hotel
259,Repnoye,RU,48.45,light rain,51.5921,43.1861,Profilaktoriy
260,Yulara,AU,80.44,overcast clouds,-25.2406,130.9889,Desert Gardens Hotel - Ayers Rock Resort
262,Sambava,MG,70.9,light rain,-14.2667,50.1667,Melrose
263,Tuatapere,NZ,51.82,clear sky,-46.1333,167.6833,Ron and Tony's Bed & Breakfast
264,Wahiawā,US,82.15,broken clouds,21.5028,-158.0236,Aloha Wahiawa
265,Pitimbu,BR,75.79,scattered clouds,-7.4706,-34.8086,Reserva do Abiaí
266,Pringsewu,ID,80.56,overcast clouds,-5.3582,104.9744,Urban Style by Front One
267,Port Macquarie,AU,65.89,overcast clouds,-31.4333,152.9167,Rydges Port Macquarie
268,Yuanping,CN,62.17,overcast clouds,38.7153,112.7575,Yuanping Xinghe Guesthouse
269,Chipinge,ZW,58.14,clear sky,-20.1883,32.6236,Chipinge Breeze Lodge
270,Tadine,NC,72.09,overcast clouds,-21.55,167.8833,
271,Amazar,RU,43.81,scattered clouds,53.858,120.875,Гостиничный Комплекс Уют
272,Turangi,NZ,55.06,overcast clouds,-39.0,175.9333,
273,Passo Fundo,BR,59.32,clear sky,-28.2628,-52.4067,Hotel Villa Vergueiro
274,San Cristobal,VE,78.98,scattered clouds,7.7669,-72.225,Posada Villaven C.A.
275,Half Moon Bay,US,73.22,overcast clouds,37.4636,-122.4286,"The Ritz-Carlton, Half Moon Bay"
276,La Ronge,CA,61.05,overcast clouds,55.1001,-105.2842,Northland Motor Hotel
277,Bozhou,CN,68.79,overcast clouds,33.8772,115.7703,Haitian Hotel
278,Tautira,PF,84.22,few clouds,-17.7333,-149.15,Pension Oaoa
279,Kirakira,SB,84.9,overcast clouds,-10.4544,161.9205,SanBiz Lodge
280,Contamana,PE,78.66,clear sky,-7.3333,-75.0167,Shiringal Touristic Park
281,Hammerfest,NO,52.25,light intensity drizzle,70.6634,23.6821,Skytterhuset
282,Srandakan,ID,80.65,broken clouds,-7.9386,110.2506,Puri Brata
283,Huaihua,CN,81.05,clear sky,27.5494,109.9592,怀化天庆大酒店
284,Mudanya,TR,64.49,clear sky,40.3753,28.8822,Kılıç Otel
285,Kayerkan,RU,31.77,overcast clouds,69.3497,87.7602,
286,Port Elizabeth,ZA,62.89,few clouds,-33.918,25.5701,39 On Nile Guest House
287,Kangaatsiaq,GL,22.75,clear sky,68.3065,-53.4641,Nukissiorfiit
288,Lavrentiya,RU,34.03,broken clouds,65.5833,-171.0,
289,Aklavik,CA,32.83,overcast clouds,68.2191,-135.0107,Aklavik Inn
290,Beringovskiy,RU,36.95,overcast clouds,63.05,179.3167,Beringgorski
291,Kavieng,PG,83.86,scattered clouds,-2.5744,150.7967,Nusa Island Retreat
292,Gannan,CN,61.14,clear sky,47.9147,123.5031,Gannan Supply and Marketing Cooperatives Hostel
293,George Town,MY,78.89,light rain,5.4112,100.3354,Cititel Penang
294,Richards Bay,ZA,63.39,few clouds,-28.783,32.0377,BON Hotel Waterfront Richards Bay
295,Saint-Pierre,RE,69.44,light rain,-21.3393,55.4781,Lindsey Hôtel
296,Zhoucheng,CN,66.58,overcast clouds,35.9122,116.3117,Yingbin Restaurant
297,Provideniya,RU,41.11,few clouds,64.3833,-173.3,
298,Bodden Town,KY,84.92,few clouds,19.2833,-81.25,Will T Place
299,Kilosa,TZ,67.17,scattered clouds,-6.8333,36.9833,New Bondeni Hotel
300,Mwinilunga,ZM,66.83,broken clouds,-11.7358,24.4293,Kwakuwahi Lodge
301,San Patricio,US,83.08,overcast clouds,28.017,-97.5169,"Motel 6 Sinton, TX"
302,Atambua,ID,84.51,broken clouds,-9.1061,124.8925,Pastori 1 Jemaat Polycarpus
303,Husavik,IS,33.71,snow,66.0449,-17.3389,Bjarnabúð
304,Puerto Escondido,MX,81.84,overcast clouds,15.85,-97.0667,Aldea del Bazar Hotel and Spa
305,Abbeville,FR,61.5,scattered clouds,50.1,1.8333,Hôtel Mercure Abbeville Centre - Porte de la Baie de Somme
306,Ponta do Sol,PT,70.43,scattered clouds,32.6667,-17.1,Hotel do Campo
307,Sinnamary,GF,80.56,few clouds,5.3833,-52.95,ALETHEIA Appartement Sinnamary
308,Lorengau,PG,83.19,overcast clouds,-2.0226,147.2712,Lorengau Harbourside Hotel
309,Makaha,US,85.33,broken clouds,21.4694,-158.2175,Hawaiian Princess Resort
310,Altay,CN,40.66,scattered clouds,47.8667,88.1167,Jinqiao Hotel
311,Emba,KZ,50.99,scattered clouds,48.8264,58.1442,
312,Cabo San Lucas,MX,89.62,clear sky,22.8909,-109.9124,Hotel Tesoro Los Cabos
313,Amga,RU,42.51,overcast clouds,60.8953,131.9608,Algys
314,Rio Tuba,PH,83.26,overcast clouds,8.5061,117.4317,Jjas Pension House
315,Swanzey,US,59.79,clear sky,42.8698,-72.2818,The Bridges Inn at Whitcomb House
316,Santa Maria,BR,61.9,clear sky,-29.6842,-53.8069,Hotel Morotin
317,Marshfield,US,66.33,overcast clouds,44.6689,-90.1718,"Holiday Inn Conference Ctr Marshfield, an IHG Hotel"
318,Hofn,IS,42.22,overcast clouds,64.2539,-15.2082,Hótel Höfn
319,Moerai,PF,76.37,broken clouds,-22.4333,-151.3333,Le Manotel
320,Kapit,MY,80.38,scattered clouds,2.0167,112.9333,Hotel Meligai Kapit
321,Maniitsoq,GL,32.16,clear sky,65.4167,-52.9,Hotel Heilmann Lyberth
322,Vila Velha,BR,73.35,broken clouds,-20.3297,-40.2925,Quality Suites Vila Velha
323,Laas,IT,58.03,broken clouds,46.6166,10.7002,Pension Feldgärtenhof
324,Trincomalee,LK,80.02,overcast clouds,8.5711,81.2335,Welcombe Hotel
325,Yinchuan,CN,66.76,overcast clouds,38.4681,106.2731,JJ Inns - Yinchuan New Moon Square Branch
326,Khovd,MN,38.41,clear sky,48.0056,91.6419,Hotel Khovd
327,Chateaubelair,VC,79.41,overcast clouds,13.2833,-61.25,Richmond Vale Diving & Hiking Center
328,Daugai,LT,43.29,clear sky,54.3667,24.3333,Lakeshore house
329,Riyadh,SA,78.94,overcast clouds,24.6877,46.7219,"InterContinental Riyadh, an IHG Hotel"
330,San Carlos Park,US,84.96,broken clouds,26.4673,-81.8015,Embassy Suites by Hilton Fort Myers Estero
331,Çorum Province,TR,50.83,clear sky,40.5,34.75,
332,Sampit,ID,82.81,few clouds,-2.5333,112.95,Aquarius Boutique Hotel Sampit
333,Elko,US,80.62,clear sky,41.0002,-115.5012,
334,Iquitos,PE,78.84,clear sky,-3.7481,-73.2472,Casa Morey Hotel & Restaurant
335,Misratah,LY,73.99,few clouds,32.3754,15.0925,فندق الماسة
336,Batié,BF,71.6,clear sky,9.8833,-2.9167,Auberge SONDAR AFACI
337,Clyde River,CA,25.97,scattered clouds,70.4692,-68.5914,Qamaq Hotel
338,Kieta,PG,85.69,light rain,-6.2167,155.6333,Uruna Bay Retreat
339,Saint-François,FR,54.84,mist,46.4154,3.9054,Manoir Du Bonheur
340,Vetluzhskiy,RU,45.64,overcast clouds,58.3902,45.4654,Sharya
341,Vágur,FO,50.02,overcast clouds,61.4732,-6.8119,The Scouts House Camping
342,Itoman,JP,86.02,few clouds,26.1247,127.6694,Southern Beach Hotel & Resort Okinawa
343,Antofagasta,CL,56.48,scattered clouds,-23.65,-70.4,"Holiday Inn Express Antofagasta, an IHG Hotel"
344,Champawat,IN,59.59,clear sky,29.3333,80.1,Hotel Tejmaan
345,Port Hedland,AU,82.45,broken clouds,-20.3167,118.5667,The Esplanade Hotel
346,Madison,US,69.51,clear sky,34.7334,-86.5667,Embassy Suites by Hilton Huntsville Hotel & Spa
347,Kenai,US,49.03,clear sky,60.5544,-151.2583,Aspen Extended Stay Suites
348,Shuyskoye,RU,45.9,overcast clouds,59.3736,41.0305,
349,Okhotsk,RU,48.92,broken clouds,59.3833,143.3,
350,Kermanshah,IR,52.7,clear sky,34.3142,47.065,Sina Hotel
351,Mount Gambier,AU,58.91,overcast clouds,-37.8333,140.7667,The Commodore
352,Ulaangom,MN,34.84,overcast clouds,49.9811,92.0667,Achit Nuur Hotel & Restaurant
353,Nakamura,JP,69.89,overcast clouds,32.9833,132.9333,Hotel Crown Hills Nakamura
354,Careiro da Várzea,BR,79.41,light rain,-3.2003,-59.8119,POUSADA DA ALDENORA
355,Tazovsky,RU,32.7,few clouds,67.4667,78.7,TazHostel
356,Paita,PE,64.87,few clouds,-5.0892,-81.1144,Hotel Náutico de Paita
357,Mocuba,MZ,68.67,clear sky,-16.8392,36.9856,Phama Lodge
358,Fairbanks,US,36.61,broken clouds,64.8378,-147.7164,Westmark Fairbanks Hotel & Conference Center
359,Chumikan,RU,51.71,overcast clouds,54.7183,135.315,Fortuna
360,Mahon,ES,70.36,clear sky,39.8885,4.2658,ARTIEM Capri
361,Vyšší Brod,CZ,60.4,overcast clouds,48.616,14.3118,HOTEL & RESTAURANT ŠUMAVA
362,Nikolskoye,RU,48.09,scattered clouds,59.7035,30.7861,Tourist House - Sablino
363,Nianzishan,CN,60.28,clear sky,47.5167,122.8833,Wenhua Hotel
364,Jumla,NP,58.21,broken clouds,29.2747,82.1838,"अन्नी घर, जुम्ला - Anni Ghar"
365,Sobolevo,RU,45.82,overcast clouds,54.4299,31.8996,
366,Termini Imerese,IT,76.82,broken clouds,37.9837,13.6956,Hotel Piccolo
367,Bilibino,RU,30.51,snow,68.0546,166.4372,Gostinitsa Severyanka
368,Dingle,PH,83.32,overcast clouds,10.9995,122.6711,SEGAYA PROPERTY
369,Yei,SS,63.9,clear sky,4.095,30.6779,City Link Hotel
370,Portales,US,83.39,clear sky,34.1862,-103.3344,"Holiday Inn Express & Suites Portales, an IHG Hotel"
371,Recreio,BR,68.74,overcast clouds,-21.525,-42.4692,Hotel Recreio
372,Naze,JP,83.32,few clouds,28.3667,129.4833,オーベルジュ・アガルイ
373,Santo Antônio do Içá,BR,76.33,scattered clouds,-3.1022,-67.9397,HOTEL AMAZON WAY
374,Hegang,CN,59.7,light rain,47.4,130.3667,
375,Palu,ID,83.59,overcast clouds,-0.8917,119.8707,Hotel Santika Palu
376,Kruisfontein,ZA,54.88,clear sky,-34.0033,24.7314,Oyster Bay House Rental
377,Kovdor,RU,40.35,overcast clouds,67.5662,30.4758,Derevo Zhelaniy
378,Bathsheba,BB,81.21,scattered clouds,13.2167,-59.5167,Atlantis Hotel
379,Coari,BR,74.41,heavy intensity rain,-4.085,-63.1414,HOTEL ALEX FLAT
380,Hūn,LY,69.6,clear sky,29.1268,15.9477,Alrwasi Hotel
381,Zyryanovsk,KZ,26.87,clear sky,49.7386,84.2719,Гостиница «ЭВЕРЕСТ»
382,Ribeira Grande,PT,68.2,broken clouds,38.5167,-28.7,Quinta da Meia Eira
383,Dogondoutchi,NE,85.91,clear sky,13.6393,4.0287,Hôtel Alheri Maison Alheri
384,Fairlie,GB,55.11,light rain,55.756,-4.8556,Brisbane House Hotel
385,Rio Grande City,US,86.11,overcast clouds,26.3798,-98.8203,La Borde House
386,Nanortalik,GL,37.08,clear sky,60.1432,-45.2371,Hotel Kap Farvel
387,Province of Vibo Valentia,IT,70.14,overcast clouds,38.6996,16.1274,Hotel Barbieri
388,Leopoldov,SK,64.27,few clouds,48.4458,17.7646,Hotel Stofing
389,San Policarpo,PH,84.13,overcast clouds,12.1791,125.5072,Manong Aklan Resort
390,San-Pédro,CI,72.99,light rain,4.7485,-6.6363,Hotel Maria
391,Ibrā’,OM,78.87,scattered clouds,22.6906,58.5334,مزرعة راحة النفوس المنزفة
392,Hibbing,US,65.7,clear sky,47.4272,-92.9377,Americas Best Value Inn Hibbing
393,Alice Springs,AU,81.95,scattered clouds,-23.7,133.8833,Desert Palms Alice Springs
394,Jimo,CN,67.78,light rain,36.3897,120.4622,Thank Inn Chain Hotel Shandong Jimo Bus Station
395,Solnechnyy,RU,60.42,overcast clouds,50.7214,136.6319,Hotel complex Pastoral
396,Saint Simons,US,73.44,clear sky,31.1352,-81.3901,"Holiday Inn Express Saint Simons Island, an IHG Hotel"
397,Talcahuano,CL,51.48,clear sky,-36.7167,-73.1167,departamento comodo
398,Tamiahua,MX,77.59,clear sky,21.2667,-97.45,Mission Of The Sun Hotel
399,Muyezerskiy,RU,39.88,overcast clouds,63.9333,31.65,"Gostinitsa Ooo ""Lzkh ""Ledmozerskoye"""
400,Loa Janan,ID,79.97,overcast clouds,-0.583,117.095,Rumah Elys Fitria Wahyuning Tyas
401,Santa Rosa,PH,82.85,broken clouds,14.3122,121.1114,Erlyn’s Sta Rosa City Home
402,Bilma,NE,82.54,clear sky,18.6853,12.9164,Expeditions Ténére voyages
403,Kahului,US,85.26,scattered clouds,20.8947,-156.47,Maui Seaside Hotel
404,Chui,UY,57.4,few clouds,-33.6971,-53.4616,Nuevo Hotel Plaza
405,Margate,GB,62.31,broken clouds,51.3813,1.3862,Premier Inn Margate hotel
406,Manosque,FR,58.42,broken clouds,43.8288,5.7869,Hôtel Restaurant Campanile Manosque
407,Oga,IT,54.28,overcast clouds,46.4631,10.347,QC Terme Bagni di Bormio Bagni Nuovi
408,Qasigiannguit,GL,8.69,clear sky,68.8193,-51.1922,Hotel Diskobay
409,Sestri Levante,IT,69.51,broken clouds,44.2732,9.3968,Grande Albergo
410,Broken Hill,AU,64.11,clear sky,-31.95,141.4333,Royal Exchange Hotel
411,Ubari,LY,72.9,clear sky,26.5921,12.7805,فندق أوباري
412,Nemuro,JP,61.23,clear sky,43.3236,145.575,Hotel Nemuro Kaiyoutei
413,Rafaela,AR,71.06,clear sky,-31.2503,-61.4867,Parra Hotel & Suites
414,Chapais,CA,49.78,broken clouds,49.7834,-74.8492,Hôtel Opémiska
415,Saint-Augustin,CA,56.16,overcast clouds,51.226,-58.6502,
416,Bandarbeyla,SO,79.07,clear sky,9.4942,50.8122,JABIR HOTEL
417,Sorong,ID,83.01,scattered clouds,-0.8833,131.25,waigo splash hotel
418,Lima,PE,59.25,overcast clouds,-12.0432,-77.0282,Gran Hotel Bolivar Lima
419,Jiaojiang,CN,82.0,few clouds,28.6803,121.4428,Jiaojiang Hotel
420,Shingū,JP,76.19,overcast clouds,33.7333,135.9833,Shingu UI Hotel
421,Matagami,CA,46.51,broken clouds,49.7502,-77.6328,Hôtel Matagami
422,Fivizzano,IT,63.79,overcast clouds,44.2383,10.126,Encanto Di Arlia
423,Meulaboh,ID,76.3,overcast clouds,4.1363,96.1285,Kost Pria
424,Takoradze,GH,74.19,light rain,4.8845,-1.7554,Raybow International Hotel
425,Ulladulla,AU,60.76,broken clouds,-35.35,150.4667,Sandpiper Motel
426,Vondrozo,MG,58.28,few clouds,-22.8167,47.2833,
427,Araouane,ML,91.35,clear sky,18.9048,-3.5265,
428,Bandi̇̄pur,NP,66.63,broken clouds,27.9333,84.4167,Bandipur Guest House
429,Saqqez,IR,49.1,clear sky,36.2499,46.2735,Saqqez Hotel
430,Bambous Virieux,MU,70.05,light rain,-20.3428,57.7575,Casa Tia Villa
431,Litovko,RU,62.13,overcast clouds,49.2361,135.1742,
432,Tubualá,PA,82.51,overcast clouds,9.5167,-79.0333,Río Nabagana
433,Berlevåg,NO,48.36,overcast clouds,70.8578,29.0864,Kvitbrakka
434,Utinga,BR,77.4,scattered clouds,-5.8172,-35.3954,Espaço de Lazer Érica Fernandes
435,Diego de Almagro,CL,65.7,clear sky,-26.3667,-70.05,hotel luna del desierto
436,Vrangel',RU,64.24,overcast clouds,42.7297,133.0839,"Отель ""БАЛИ"""
437,State College,US,61.74,clear sky,40.7934,-77.86,Hampton Inn State College
438,Saravan,AM,36.25,clear sky,39.7196,45.6483,
439,Yagodnoye,RU,31.12,broken clouds,62.55,149.6667,Гостевой дом
440,Yushu,CN,61.88,overcast clouds,44.8,126.5333,Honorable Institute
441,Vilhena,BR,73.63,broken clouds,-12.7406,-60.1458,Hotel Mirage
442,Qobustan,AZ,66.31,clear sky,40.0824,49.412,
443,Sistranda,NO,58.96,overcast clouds,63.7256,8.834,Hotell Frøya
444,Pyinmana,MM,75.16,overcast clouds,19.7333,96.2167,"Win (Computer, Copier, Digital Stamp, Invitation Card, Trophy) Shop"
445,Mezen',RU,44.53,overcast clouds,65.8522,44.24,Gostevoy Dom Everest
447,Sijunjung,ID,75.36,overcast clouds,-0.6876,100.9537,Hotel Bukik Gadang
448,Tagcatong,PH,83.37,few clouds,9.0022,125.2569,SKY’S FLOATING COTTAGES
449,Taoudenni,ML,92.12,clear sky,22.6783,-3.9836,
450,Edéia,BR,78.21,overcast clouds,-17.3383,-49.9314,Hotel Imperial Edeia
451,Rūdarpur,IN,79.95,clear sky,26.4394,83.6144,Indian Guest House
452,Vostok,RU,63.19,overcast clouds,46.4856,135.8833,
453,Asheville,US,62.58,clear sky,35.6009,-82.554,Four Points by Sheraton Asheville Downtown
454,Phibun Mangsahan,TH,83.1,overcast clouds,15.2447,105.2291,ซันนี่ รีสอร์ท
455,Xi'an,CN,63.41,light rain,34.2583,108.9286,Grand New World Hotel
456,North Bend,US,78.94,overcast clouds,43.4065,-124.2243,Red Lion Hotel Coos Bay
457,Ormara,PK,81.63,scattered clouds,25.2088,64.6357,Crystal Beach and Camping Resort Ormara
458,Tlacotepec (San Mateo),MX,63.97,overcast clouds,20.0667,-97.8667,RANCHO LA ILUSION
459,Najrān,SA,75.85,clear sky,17.4924,44.1277,محمد هادي ال فطيح
460,Nome,US,37.17,overcast clouds,64.5011,-165.4064,Dredge 7 Inn
461,Namie,JP,70.72,overcast clouds,37.4833,141.0,いこいの村なみえ
462,Port Hardy,CA,57.38,light rain,50.6996,-127.4199,Airport Inn
463,Ahipara,NZ,57.04,moderate rain,-35.1667,173.1667,Ahipara Holiday Park
464,Zemio,CF,67.51,light rain,5.0314,25.1361,OCHA Office
465,Korfovskiy,RU,62.06,overcast clouds,48.2183,135.0564,
466,Ranong,TH,73.33,overcast clouds,9.9658,98.6348,Tinidee Hotel@Ranong
467,Vestmannaeyjar,IS,43.52,overcast clouds,63.4427,-20.2734,Glamping & Camping
468,Grand Gaube,MU,70.2,light rain,-20.0064,57.6608,Veranda Paul et Virginie Hotel & Spa
469,Mattru,SL,73.36,light rain,7.6244,-11.8332,"Mondkor Town, Bagbo Chiefdom, Bo District"
470,San Quintín,MX,68.49,scattered clouds,30.4833,-115.95,Don Eddie's Sport Fishing Center
471,Viedma,AR,43.59,few clouds,-40.8135,-62.9967,Hotel Cristal
472,Ust'-Omchug,RU,35.91,clear sky,61.15,149.6333,
473,Jiayuguan City,CN,64.0,overcast clouds,39.8167,98.3,Jiugang Hotel - Jiayuguan
474,Launceston,AU,52.81,broken clouds,-41.45,147.1667,Hotel Grand Chancellor Launceston
475,Lata,PT,64.04,overcast clouds,40.1629,-8.3327,Casa Maquia
476,Butiá,BR,59.56,clear sky,-30.1197,-51.9622,Restaurante e Churrascaria Santo Antonio Ltda
477,Nampula,MZ,65.25,clear sky,-15.1165,39.2666,BUTIK Hotel
478,Matara,LK,76.73,overcast clouds,5.9485,80.5353,Amaloh Boutique Resort
479,Saldanha,ZA,55.45,clear sky,-33.0117,17.9442,Blue Bay Lodge
480,Padang,ID,75.25,overcast clouds,-0.9492,100.3543,Mercure Padang
481,Goma,CD,61.66,light rain,-1.6792,29.2228,Hotel la Versailles Goma
482,Rocha,UY,54.61,clear sky,-34.4833,-54.3333,Beleza Pura B&B
483,Dombarovskiy,RU,45.12,clear sky,50.7587,59.5386,
484,Douglas,US,83.28,clear sky,41.3,-96.167,Hilton Garden Inn Omaha West
485,Oistins,BB,80.69,scattered clouds,13.0667,-59.5333,Butterfly Beach Hotel
486,Nola,IT,73.26,few clouds,40.922,14.5329,Pamaran Hotel
487,Byron Bay,AU,68.05,broken clouds,-28.65,153.6167,Backpackers Inn on the Beach
488,Noumea,NC,78.78,few clouds,-22.2763,166.4572,Hôtel Le Lagon
489,São Filipe,CV,78.58,overcast clouds,14.8961,-24.4956,Hotel Xaguate
490,Strai,NO,57.63,overcast clouds,58.2,7.9,Mosterøy
491,Krasnoarmeysk,RU,48.07,overcast clouds,51.0239,45.6969,"Hotel ""Your home-Balzer"""
492,Myre,NO,55.35,overcast clouds,69.1036,15.9492,Alveland AS
493,Paragominas,BR,73.47,clear sky,-2.9667,-47.4833,INOVA
494,Paraná,AR,72.52,clear sky,-31.732,-60.5238,Howard Johnson by Wyndham Plaza Hotel Mayorazgo
495,Cabinda,AO,75.34,overcast clouds,-5.55,12.2,Hotel Maiombe
496,Shediac,CA,64.45,broken clouds,46.2198,-64.5411,Auberge Gabrièle (Hôtel & Restaurant)
497,Lubumbashi,CD,68.38,broken clouds,-11.6609,27.4794,Glo Flats
498,General Roca,AR,52.2,broken clouds,-39.0333,-67.5833,Hotel y Casino del Río General Roca
499,Capreol,CA,55.87,broken clouds,46.706,-80.9225,
500,Wuwei,CN,64.87,scattered clouds,37.9281,102.6414,Thank Inn Chain Hotel gansu wuwei liangzhou district xiguan middle road
501,Vanimo,PG,85.64,moderate rain,-2.6741,141.3028,Vahmoneh Lodge Vanimo
502,Mana,GF,81.45,clear sky,5.6592,-53.7767,LE SAMANA
503,Lusaka,ZM,68.11,few clouds,-15.4067,28.2871,"InterContinental Lusaka, an IHG Hotel"
504,San Juan,AR,63.37,clear sky,-31.5375,-68.5364,Hotel Provincial
505,Mahanoro,MG,67.12,light rain,-19.9,48.8,BUNGALOW MAHAMANINA
506,Thinadhoo,MV,81.93,moderate rain,0.5333,72.9333,
507,Gargždai,LT,47.28,overcast clouds,55.7128,21.4033,LIJO
508,Santa Rosalía,MX,85.6,clear sky,27.3167,-112.2833,Hotel Las Casitas Santa Rosalia
509,Dalianwan,CN,66.24,light rain,39.0286,121.695,Huanghai Hotel
510,Bougouni,ML,73.51,overcast clouds,11.417,-7.479,Non Stop
511,Ushtobe,KZ,52.68,clear sky,45.2514,77.9838,"Gostinitsa ""Diyar"""
512,Liboro,PH,82.8,overcast clouds,13.8245,122.7295,LEGASPI & LINAO
513,Coahuayana Viejo,MX,80.24,overcast clouds,18.7333,-103.6833,El rranchito michuacan de ocampos
514,Morondava,MG,73.58,clear sky,-20.2833,44.2833,La Case Bambou
515,Snezhnogorsk,RU,44.38,overcast clouds,69.1933,33.2531,Severnoye Siyaniye
516,Luanda,AO,73.4,broken clouds,-8.8368,13.2343,LANDU MARINEZA LUFUANDU TONI
517,Virginia Beach,US,70.02,few clouds,36.8529,-75.978,Hilton Virginia Beach Oceanfront
518,Bagadó,CO,75.79,overcast clouds,5.4116,-76.4152,Hotel San Jose
519,Finschhafen,PG,84.63,few clouds,-6.6024,147.8681,Cossam Guest House
520,Kilindoni,TZ,75.31,clear sky,-7.9139,39.6668,Bustani B&B
521,Ozernovskiy,RU,49.6,light rain,51.5,156.5167,
522,Bosaso,SO,86.49,few clouds,11.2842,49.1816,Red Sea Hotel
523,Valdivia,CL,44.69,clear sky,-39.8142,-73.2459,Hostal Entre Rios
524,Salinópolis,BR,80.53,few clouds,-0.6136,-47.3561,Salinas Park Resort Maçarico AP101
525,Huhi,MX,74.95,broken clouds,20.7167,-89.1667,cenote de la tortuga
526,Baghdad,IQ,71.51,clear sky,33.3406,44.4009,Baghdad Hotel
527,Nchelenge,ZM,76.98,overcast clouds,-9.3451,28.734,KD Travellers Home
528,Ghanzi,BW,68.85,clear sky,-21.5667,21.7833,Ghanzi Farmhouse
529,Kununurra,AU,89.58,scattered clouds,-15.7667,128.7333,Hotel Kununurra
530,Zhezkazgan,KZ,58.15,overcast clouds,47.8043,67.7144,Hotel Zumrat
531,Dīr,PK,64.44,scattered clouds,35.2058,71.8756,Sindh Hotal Dir
532,Sungai Besar,MY,75.25,overcast clouds,3.6746,100.9867,NIDA Rooms Sabak Bernam Comfort
534,Murmino,RU,45.55,overcast clouds,54.6036,40.0544,Country house Alekanovo
535,Urmia,IR,44.15,clear sky,37.5527,45.0761,Urmia Kimia Mah Hotel
536,Ilulissat,GL,17.62,clear sky,69.2167,-51.1,Hotel Arctic
537,Codajás,BR,75.4,few clouds,-3.8367,-62.0569,Hotel Tucunaré
538,Xining,CN,52.61,overcast clouds,36.6167,101.7667,Super Leisure Hotel
539,Sittwe,MM,78.04,light rain,20.15,92.9,Hotel Memory
540,Sabha,LY,71.42,clear sky,27.0377,14.4283,Foundation Taaj Asala for Historical Research and Archeology
541,Sun Valley,US,83.75,smoke,39.5963,-119.776,Panther Valley RV Park
542,Derzhavīnsk,KZ,47.91,light rain,51.1,66.3167,Ooo.khim Baza
543,Pacific Grove,US,74.57,overcast clouds,36.6177,-121.9166,Lovers Point Inn
544,Ajdabiya,LY,70.54,clear sky,30.7554,20.2263,Almadina Hotel
545,Tefé,BR,73.09,light rain,-3.3542,-64.7114,Aracati Hotel
546,Kuala Sungai Baru,MY,77.14,overcast clouds,2.3594,102.0353,PNK Resort Melaka Barat
547,Kozhva,RU,35.64,overcast clouds,65.1073,57.0459,Gostinicha IP Kayuda Olga Aleksandrovna
548,Sioux Lookout,CA,59.38,scattered clouds,50.1001,-91.917,Knobby's Fly-In Camps
549,Plácido de Castro,BR,82.36,clear sky,-10.3353,-67.1856,Hotel Carioca
550,Amudat,UG,68.83,few clouds,1.95,34.95,Silent Night Hotel
551,Singkang,MY,76.89,overcast clouds,2.1006,102.7994,Kampung Seri Makmor Pagoh
552,Letlhakane,BW,64.81,clear sky,-21.4167,25.5833,Motswedi Hotel P650
553,Cairns,AU,87.94,scattered clouds,-16.9167,145.7667,Mantra Trilogy Cairns
554,Annan,GB,60.17,overcast clouds,54.9884,-3.2565,Queensberry Arms Hotel
555,Arrah,IN,78.69,broken clouds,25.5667,84.6667,SPOT ON 48440 Ara Exotica SPOT
556,County Wicklow,IE,46.9,heavy intensity rain,53.0,-6.4167,Glenmalure Hostel
557,Chākuliā,IN,79.12,scattered clouds,22.4833,86.7167,BKD
558,Yerbogachën,RU,32.49,snow,61.2767,108.0108,
559,Novobirilyussy,RU,30.33,few clouds,56.9514,90.6661,Gostinitsa
560,Shitanjing,CN,61.7,broken clouds,39.2342,106.3439,
561,Porto Walter,BR,78.64,broken clouds,-8.2686,-72.7439,Secretaria de saúde
562,Alexandria,EG,75.16,scattered clouds,31.2156,29.9553,Royal Crown Hotel
563,Trebisacce,IT,65.53,overcast clouds,39.8708,16.5312,Hotel Ristorante Pizzeria 111
564,Guerrero Negro,MX,70.95,clear sky,27.9769,-114.0611,"Casa Laguna, Bed & Breakfast"
565,Key Largo,US,82.99,few clouds,25.0865,-80.4473,Bayside Inn Key Largo
566,Carman,CA,65.32,overcast clouds,49.4992,-98.0016,"Bell Aura Bed, Breakfast & Bistro"
567,Peleduy,RU,36.14,light rain,59.6289,112.7406,Гостиница «Уют»
568,Ketchikan,US,51.78,moderate rain,55.3422,-131.6461,Snow's Cove Lodge
569,Orocué,CO,79.86,few clouds,4.7912,-71.3354,Hotel Brisas de San Miguel
570,Flin Flon,CA,53.67,overcast clouds,54.7682,-101.865,Victoria Inn Flin Flon
571,Pangoa,PE,72.97,broken clouds,-12.1167,-73.0,
572,Novy Urengoy,RU,32.63,few clouds,66.0833,76.6333,Apartments Moy Dom na Gubkina
573,San Miguel,SV,75.13,moderate rain,13.4833,-88.1833,Hotel Tropico Inn San Miguel
574,Grand-Lahou,CI,73.6,light rain,5.1367,-5.0242,Hotel Beatitude de Grand Lahou
575,Edson,CA,64.54,scattered clouds,53.5835,-116.4356,"Holiday Inn Express & Suites Edson, an IHG Hotel"
576,Mackay,AU,79.68,few clouds,-21.15,149.2,International Lodge Motel
577,Moen,NO,57.92,overcast clouds,69.1304,18.6123,Buktamo Eiendom AS
578,Xinqing,CN,57.4,overcast clouds,48.2333,129.5,
579,Caniço,PT,70.43,few clouds,32.6333,-16.85,Quinta Splendida Wellness & Botanical Garden
580,Biak,ID,80.98,overcast clouds,-0.9131,122.8766,Penginapan Kim
581,Aksu,CN,62.13,clear sky,41.1231,80.2644,Pudong Holiday Hotel
582,Almaznyy,RU,46.54,few clouds,48.0448,40.045,
583,Srednekolymsk,RU,32.97,light snow,67.45,153.6833,
584,Xiongyue,CN,64.94,moderate rain,40.1774,122.1228,Samsung Business Hotel
585,Teleneşti,MD,58.08,light rain,47.4997,28.3656,Căminul școlii profesionale
586,Belyy Yar,RU,33.69,scattered clouds,53.6039,91.3903,Pasportnyy Stol
587,Kashgar,CN,67.21,clear sky,39.4547,75.9797,帕米尔青年旅舍
588,Tambopata,PE,80.49,clear sky,-12.7333,-69.1833,
589,Anito,PH,84.92,overcast clouds,12.4497,125.2886,FELIPA LAODENIO PROPERTY
590,Bonavista,CA,54.12,overcast clouds,48.6499,-53.1147,Abbott's Bed & Breakfast
591,Marawi,PH,75.65,broken clouds,7.9986,124.2928,Derogongan Residence
592,Magdalena,PH,83.41,moderate rain,14.1999,121.429,Samparada & Gestiada Residences
593,Bermeo,ES,75.49,overcast clouds,43.4209,-2.7215,Eco-Hotel Mundaka
594,Alac,PH,84.72,light rain,15.9877,120.8065,Ramirez Private Resort
595,Alyangula,AU,87.67,broken clouds,-13.8483,136.4192,Groote Eylandt Lodge
596,Sharan,RU,45.57,light rain,54.8167,54.0,
597,Lixouri,GR,70.38,clear sky,38.2019,20.4314,Hotel Summery
598,Remedios,CU,80.1,few clouds,22.4947,-79.5458,Hostal Yunai
599,Rosetown,CA,77.99,overcast clouds,51.5501,-108.0014,Travelodge by Wyndham Rosetown
600,Karratha,AU,75.45,clear sky,-20.7377,116.8463,ibis Styles Karratha
601,Alpena,US,58.95,light rain,45.0617,-83.4327,Days Inn by Wyndham Alpena
602,Marsá Maţrūḩ,EG,73.6,clear sky,31.3525,27.2453,Beau Site
603,Mossamedes,AO,61.93,scattered clouds,-15.1961,12.1522,Hotel Chik Chik Namibe
604,Platteville,US,73.47,clear sky,42.7342,-90.4785,"Country Inn & Suites by Radisson, Platteville, WI"
605,Shelburne,CA,57.65,overcast clouds,44.0787,-80.2041,The Retreat at the Farm
606,Zorritos,PE,70.2,broken clouds,-3.6805,-80.6782,COSTA AZUL ZORRITOS MANGO
607,Ngunguru,NZ,55.31,overcast clouds,-35.6167,174.5,Pacific Rendezvous Motel Resort
608,Kayes,ML,79.3,overcast clouds,14.0,-11.0,
609,Mormugao,IN,78.06,overcast clouds,15.4,73.8,Coconut Creek Resort
610,Sarab,IR,52.54,clear sky,38.6066,44.9883,مسجد امام رضا
611,Greymouth,NZ,55.51,broken clouds,-42.4667,171.2,Kingsgate Hotel Greymouth
612,Natchez,US,75.42,clear sky,31.5604,-91.4032,Hampton Inn & Suites Natchez
613,Kennett,US,75.18,broken clouds,36.2362,-90.0556,Americas Best Value Inn Kennett
614,Manjacaze,MZ,63.9,clear sky,-24.7117,33.8828,Hotel Gani
615,Two Hills,CA,73.89,broken clouds,53.7169,-111.7518,Junction Inn
616,Morehead,US,66.83,clear sky,37.2711,-87.1764,CCI Express Inn
617,Beloha,MG,69.17,clear sky,-25.1667,45.05,
618,Thouars,FR,61.72,overcast clouds,46.976,-0.2151,Contact-Hotel-du-Relais Thouars
619,Bǝrdǝ,AZ,58.39,clear sky,40.3744,47.1267,Prins Motel Restoran
620,Pochutla,MX,78.62,overcast clouds,15.7432,-96.4661,Hotel Posada San Jose
621,Mingyue,CN,60.75,overcast clouds,43.1069,128.9217,安图土地大厦
622,Philadelphia,US,64.76,clear sky,39.9523,-75.1638,"The Ritz-Carlton, Philadelphia"
623,Pasni,PK,81.0,few clouds,25.2631,63.471,Kashmiri Hotal
624,Kampene,CD,66.69,overcast clouds,-3.6,26.6667,
625,Māngrol,IN,79.92,overcast clouds,21.1167,70.1167,Hotel The Royal Honours
626,Konitsa,GR,45.45,clear sky,40.0486,20.7567,Hotel Panorama
627,Cooma,AU,51.57,scattered clouds,-36.2333,149.1333,High Country Motel
628,Bambanglipuro,ID,80.74,broken clouds,-7.95,110.2833,Puri Brata
629,Bunia,CD,61.32,clear sky,1.5667,30.25,Gold Star International Hotel
630,Miandrivazo,MG,75.97,clear sky,-19.5167,45.4667,Hôtel Arc En Ciel Miandrivazo
631,Laem Sing,TH,80.15,broken clouds,12.4816,102.0738,Laemsing Whitehouse Resort
632,Naifaru,MV,80.73,overcast clouds,5.4444,73.3657,Naifaru Residence Guest House
633,Purpe,RU,32.04,clear sky,64.4803,76.6897,"Gostinnitsa ""Valentina"""
634,Dongli,CN,82.38,clear sky,23.5656,116.8194,Chenghai Shizhang Donghuaqiao Hostel
635,Batesville,US,81.01,clear sky,35.7698,-91.641,"Holiday Inn Express & Suites Batesville, an IHG Hotel"
636,Fort Morgan,US,83.8,clear sky,40.2503,-103.8,Hampton Inn Fort Morgan
637,Barra de Tecoanapa,MX,81.88,overcast clouds,16.5167,-98.75,Hotel Manglares
638,Chernyshevsk,RU,41.45,few clouds,52.5243,117.0174,Inn Na Tsentralnoy
639,Menongue,AO,61.79,clear sky,-14.6585,17.691,Ritz Lauca
640,Jepelacio,PE,63.84,scattered clouds,-6.1167,-76.95,Fundo ecológico Yajáuwajah
641,Wonthaggi,AU,66.06,broken clouds,-38.6044,145.5913,Wonthaggi Caravans & Trailers
642,Cotonou,BJ,78.78,scattered clouds,6.3654,2.4183,Novotel Cotonou Orisha
643,Hasaki,JP,75.29,broken clouds,35.7333,140.8333,Hotel Sunrise Choshi
644,Santa Isabel,BR,72.66,overcast clouds,-23.3156,-46.2214,Chácara Sombra do Altíssimo
645,Qinzhou,CN,81.61,clear sky,21.95,108.6167,Jinjiang Inn Style Qingzhou Walmart
646,Vinstra,NO,49.33,overcast clouds,61.5952,9.7523,Sødorp Gjestgivergård AS
647,Nouadhibou,MR,75.18,few clouds,20.931,-17.0347,El Medina
648,Lobito,AO,69.42,clear sky,-12.3481,13.5456,Casa Rosa Hotel Residence
649,Oslo,NO,53.58,broken clouds,59.9127,10.7461,Anker Hotel
650,Kosh-Agach,RU,20.97,broken clouds,50.0,88.6667,Fermerskiy Dom v Kosh-Agache
651,Chalchihuites,MX,58.53,overcast clouds,23.4833,-103.8833,Hotel chalchihuites
652,Seymchan,RU,38.44,overcast clouds,62.8833,152.4333,
653,Taltal,CL,62.26,clear sky,-25.4,-70.4833,Residencial Karime
654,Muisne,EC,74.86,overcast clouds,0.6,-80.0333,Quinta Samay
655,Kiruna,SE,43.72,overcast clouds,67.8557,20.2251,Camp Ripan
656,Tayirove,UA,53.91,clear sky,46.3631,30.6489,Grand Marine Spa Hotel
657,Yatou,CN,66.22,moderate rain,37.15,122.3833,GreenTree Hotel Rongcheng Bus Station
658,Inzer,RU,40.42,light rain,54.2167,57.5556,Инзер Кафе
659,Zhaotong,CN,63.41,broken clouds,27.3167,103.7167,Jingguan Home
660,Bamiantong,CN,66.34,light rain,44.9333,130.5333,Dehuiyuan Leisure Resort
661,Praia da Vitória,PT,68.25,broken clouds,38.7333,-27.0667,Hotel Branco I
662,Siuna,NI,73.72,overcast clouds,13.7332,-84.7773,hotel los chinitos
663,Gwadar,PK,80.46,clear sky,25.1216,62.3254,Sadaf Resort
664,Quang Ngai,VN,80.31,clear sky,15.1167,108.8,Central Hotel
665,Nam Som,TH,80.1,broken clouds,17.7704,102.1895,โรงแรมวุฒิโชค น้ำโสม ที่พักไกล้วัดป่าภูก้อน ราคา 500฿
666,Ereymentau,KZ,35.65,overcast clouds,51.6199,73.1033,"Gostinitsa ""Dostyk"""
667,Bata,GQ,76.01,overcast clouds,1.8639,9.7658,Hotel Elik Melen
668,Canyon,US,81.45,overcast clouds,34.9803,-101.9188,"Holiday Inn Express & Suites Canyon, an IHG Hotel"
669,Dudinka,RU,31.15,overcast clouds,69.4058,86.1778,Hotel Viktoria
670,Diadi,PH,81.5,scattered clouds,16.662,121.3658,Papa Pilor
671,Turaif,SA,62.85,clear sky,31.6725,38.6637,Turaif
672,Sisimiut,GL,26.13,clear sky,66.9395,-53.6735,Hotel Sisimiut
673,Icó,BR,85.26,broken clouds,-6.4011,-38.8622,Pousada Emanuella
674,Calvià,ES,70.92,scattered clouds,39.5657,2.5062,Castell Son Claret
675,Lieksa,FI,43.3,scattered clouds,63.3167,30.0167,Kaatrahovi
676,Stanghelle,NO,62.78,overcast clouds,60.5528,5.7357,Salmon Paradise
677,Boshan,CN,64.24,overcast clouds,36.4833,117.8333,Tianfu Hotel
678,Aksha,RU,43.05,clear sky,50.2814,113.2867,Vizit
679,Pangody,RU,31.69,clear sky,65.85,74.4859,Elizaveta Shevchuk's House
680,Iracoubo,GF,81.09,clear sky,5.4802,-53.2011,Le Gîte d’Iracoubo
